{"generado": "2026-07-03T15:10:50.179436+00:00", "ventanas": {"bloque_horas": 12, "municipio_horas": 6, "reportes_min": 90}, "bloques": {"0": {"estado": "desconocido", "desde": null, "causa": null}, "1": {"estado": "afectado", "desde": "2026-07-03T04:42:59+00:00", "causa": "déficit de generación", "ult_afecta": "2026-07-03T10:02:48+00:00", "parcial": "2026-07-03T14:58:10+00:00", "reportes_sin": 3}, "2": {"estado": "afectado", "desde": "2026-07-03T04:42:59+00:00", "causa": "déficit de generación", "ult_afecta": "2026-07-03T10:02:48+00:00", "parcial": "2026-07-03T14:38:13+00:00", "reportes_sin": 4}, "3": {"estado": "afectado", "desde": "2026-07-03T04:42:59+00:00", "causa": "déficit de generación", "ult_afecta": "2026-07-03T11:16:11+00:00", "reportes_sin": 4, "reportes_con": 1}, "4": {"estado": "afectado", "desde": "2026-07-03T04:42:59+00:00", "causa": "déficit de generación", "ult_afecta": "2026-07-03T10:02:48+00:00", "parcial": "2026-07-03T14:28:46+00:00", "reportes_sin": 3, "reportes_con": 1}, "5": {"estado": "afectado", "desde": "2026-07-03T04:14:01+00:00", "causa": "déficit de generación", "ult_afecta": "2026-07-03T10:02:48+00:00", "reportes_sin": 7, "horas_reportadas": 13, "n_reportes_horas": 4}, "6": {"estado": "afectado", "desde": "2026-07-03T03:58:18+00:00", "causa": "déficit de generación", "ult_afecta": "2026-07-03T10:02:48+00:00", "reportes_sin": 2}}, "daf": {"estado": "activo", "desde": "2026-07-03T11:09:50+00:00"}, "averias": {"fecha": "2026-07-03T09:46:57+00:00", "items": [{"tipo": "Subestación Apolo", "municipio": "Cerro – 10 de Octubre", "direccion": "Casino Deportivo y Santo Suarez"}, {"tipo": "Transformador dañado", "municipio": "Arroyo Naranjo", "direccion": "Maceo / 1ra y H. Barrio Azul", "lat": 23.0475927, "lon": -82.3550251}, {"tipo": "Transformador dañado", "municipio": "Arroyo Naranjo", "direccion": "Quesel / 1ra y 2da Víbora Park"}, {"tipo": "Transformador dañado", "municipio": "Cerro", "direccion": "Infanta / Sta. Teresa y Cintra"}, {"tipo": "Transformador dañado", "municipio": "Plaza", "direccion": "8 / 1ra y 3ra", "lat": 23.1161333, "lon": -82.3856785}, {"tipo": "Transformador dañado", "municipio": "Plaza", "direccion": "23 e I, Vedado", "lat": 23.1459307, "lon": -82.3859642}, {"tipo": "Transformador dañado", "municipio": "Boyeros", "direccion": "Vantroy y Final, La Perduri"}, {"tipo": "Transformador dañado", "municipio": "Centro Habana – Habana Vieja", "direccion": "Sitio / Márquez González y San Carlos"}, {"tipo": "Transformador dañado", "municipio": "10 de Octubre", "direccion": "Municipio / Fabrica y Justicia"}, {"tipo": "Transformador dañado", "municipio": "Guanabacoa", "direccion": "Estrada Palma / Coto y Ramiro"}, {"tipo": "Transformador dañado", "municipio": "Lisa", "direccion": "212 e/ 31 y 37", "lat": 23.0549963, "lon": -82.4437789}]}, "emergencia": {"fecha": null, "items": []}, "parciales": [{"municipio": "Boyeros", "direccion": "Calle 37 desde 44 hasta 50; Calle 33 desde 44 hasta 66; Reparto Santa Felicia de Marianao.", "bloque": 4, "fecha": "2026-07-03T14:28:46+00:00", "lat": 23.0714117, "lon": -82.3992293}, {"municipio": "Boyeros", "direccion": "2 desde 27 hasta 25, 25 desde 2 hasta B, A desde 25 hasta 23, 23 desde 4 hasta J, J desde 25 hasta 23, 25 desde J hasta M, 27 desde J hasta O, M desde San Lázaro hasta 25.", "bloque": 4, "fecha": "2026-07-03T14:28:46+00:00", "lat": 22.9734808, "lon": -82.3862496}, {"municipio": "Boyeros", "direccion": "14 desde Zapata hasta 23, 23 desde 14 hasta 26, 23 hasta 38, 26 desde 23 hasta 33.", "bloque": 4, "fecha": "2026-07-03T14:28:46+00:00", "lat": 22.9715285, "lon": -82.3919065}, {"municipio": "Boyeros", "direccion": "Mulgoba, Jesús Menéndez, Ampliación Mulgoba.", "bloque": 4, "fecha": "2026-07-03T14:28:46+00:00", "lat": 22.9802517, "lon": -82.3813148}, {"municipio": "Boyeros", "direccion": "Río Verde, Calixto Sánchez", "bloque": 4, "fecha": "2026-07-03T14:28:46+00:00", "lat": 23.0154187, "lon": -82.3929816}, {"municipio": "Boyeros", "direccion": "Calle 70 desde 3ra hasta 11; Calle 82-84 desde 3ra hasta 9na, Almendares.", "bloque": 4, "fecha": "2026-07-03T14:28:46+00:00", "lat": 23.0628778, "lon": -82.4038677}, {"municipio": "Boyeros", "direccion": "Calle 42 desde 9na hasta 39A; Calle 9na desde 42 hasta 76; Calle 25 desde 26 hasta 42; Calle 34 desde 17 hasta 41 (La Sierra)", "bloque": 4, "fecha": "2026-07-03T14:28:46+00:00", "lat": 23.0714117, "lon": -82.3992293}, {"municipio": "Guanabacoa", "direccion": "Vía Blanca desde 1ra hasta Primelle, Primelle desde Vía Blanca hasta Santa Catalina, Santa Catalina desde Primelle hasta Independencia Independencia desde Rotonda hasta Palmar, Independencia hasta Rambla, Colón hasta 14.", "bloque": 2, "fecha": "2026-07-03T14:38:13+00:00", "lat": 23.136979, "lon": -82.3071331}, {"municipio": "Guanabacoa", "direccion": "Calle 70 desde 13 hasta 29 (Reparto Buenavista); Calle 64 desde 5ta hasta 17 (Almendares); Calle 66 desde 1ra hasta 7ma (Miramar)", "bloque": 2, "fecha": "2026-07-03T14:38:13+00:00", "lat": 23.1242175, "lon": -82.3166964}, {"municipio": "Guanabacoa", "direccion": "Zonas: 12; 13; 14; 19; 20; 21; 23; 24 y 25", "bloque": 2, "fecha": "2026-07-03T14:38:13+00:00", "lat": 23.16877241111111, "lon": -82.26874627777778}, {"municipio": "Guanabacoa", "direccion": "Zonas: 13, 15, 16, 17, 18, 21, Micro x", "bloque": 2, "fecha": "2026-07-03T14:38:13+00:00", "lat": 23.170599183333334, "lon": -82.26224956666667}, {"municipio": "Regla", "direccion": "Calle 54 desde 17 hasta 41; Calle 25 desde 46 hasta 66 (Buenavista-Cuadrante de 198,202,11,13,15,17,19 (Siboney), 220 desde 1ra hasta 5ta, 238 desde 5ta hasta 5ta E (Jaimanitas)", "bloque": 1, "fecha": "2026-07-03T14:58:10+00:00", "lat": 23.1428249, "lon": -82.3398591}], "zonas_verdes": ["Habana del Este|Zona 12", "Habana del Este|Zona 13", "Habana del Este|Zona 14", "Habana del Este|Zona 15", "Habana del Este|Zona 16", "Habana del Este|Zona 17", "Habana del Este|Zona 18", "Habana del Este|Zona 19", "Habana del Este|Zona 20", "Habana del Este|Zona 21", "Habana del Este|Zona 23", "Habana del Este|Zona 24", "Habana del Este|Zona 25"], "reportes_llm": [{"lat": 23.0477142, "lon": -82.3777097, "tipo": "sin_corriente", "lugar": "Fortuna", "horas": null, "fecha": "2026-07-03T14:59:59+00:00"}, {"lat": 23.0063358, "lon": -82.4107321, "tipo": "sin_corriente", "lugar": "Abel Santamaría", "horas": null, "fecha": "2026-07-03T14:59:01+00:00"}, {"lat": 23.1166629, "lon": -82.4002115, "tipo": "sin_corriente", "lugar": "Nuevo Vedado", "horas": null, "fecha": "2026-07-03T14:57:40+00:00"}, {"lat": 23.1001534, "lon": -82.4113899, "tipo": "con_corriente", "lugar": "La Ceiba", "horas": null, "fecha": "2026-07-03T14:57:38+00:00"}, {"lat": 22.9799333, "lon": -82.3815438, "tipo": "sin_corriente", "lugar": "Mulgoba", "horas": null, "fecha": "2026-07-03T14:57:32+00:00"}, {"lat": 23.1109148, "lon": -82.4164422, "tipo": "sin_corriente", "lugar": "Almendares", "horas": 18, "fecha": "2026-07-03T14:52:46+00:00"}, {"lat": 23.010653, "lon": -82.4728451, "tipo": "sin_corriente", "lugar": "Valle Grande", "horas": null, "fecha": "2026-07-03T14:49:15+00:00"}, {"lat": 23.0568593, "lon": -82.3857728, "tipo": "sin_corriente", "lugar": "Aldabó", "horas": 17, "fecha": "2026-07-03T14:47:08+00:00"}, {"lat": 23.0568593, "lon": -82.3857728, "tipo": "sin_corriente", "lugar": "Aldabó", "horas": null, "fecha": "2026-07-03T14:46:51+00:00"}, {"lat": 23.1363585, "lon": -82.3879702, "tipo": "con_corriente", "lugar": "Vedado", "horas": null, "fecha": "2026-07-03T14:46:04+00:00"}, {"lat": 23.1166629, "lon": -82.4002115, "tipo": "sin_corriente", "lugar": "Nuevo Vedado", "horas": null, "fecha": "2026-07-03T14:46:00+00:00"}, {"lat": 23.1057411, "lon": -82.3677712, "tipo": "sin_corriente", "lugar": "Santos Suárez", "horas": null, "fecha": "2026-07-03T14:44:59+00:00"}, {"lat": 23.0419295, "lon": -82.3207629, "tipo": "sin_corriente", "lugar": "Parcelación Moderna", "horas": null, "fecha": "2026-07-03T14:43:38+00:00"}, {"lat": 23.0419295, "lon": -82.3207629, "tipo": "sin_corriente", "lugar": "Parcelación Moderna", "horas": null, "fecha": "2026-07-03T14:39:37+00:00"}, {"lat": 23.1349509, "lon": -82.3699206, "tipo": "sin_corriente", "lugar": "Centro Habana", "horas": null, "fecha": "2026-07-03T14:38:44+00:00"}, {"lat": 23.0361711, "lon": -82.2453716, "tipo": "con_corriente", "lugar": "Alberro", "horas": null, "fecha": "2026-07-03T14:38:26+00:00"}, {"lat": 23.1001534, "lon": -82.4113899, "tipo": "sin_corriente", "lugar": "La Ceiba", "horas": null, "fecha": "2026-07-03T14:37:31+00:00"}, {"lat": 23.1084359, "lon": -82.3824298, "tipo": "sin_corriente", "lugar": "Cerro", "horas": 16, "fecha": "2026-07-03T14:35:21+00:00"}, {"lat": 23.0074031, "lon": -82.3938172, "tipo": "sin_corriente", "lugar": "Baluarte", "horas": 96, "fecha": "2026-07-03T14:32:56+00:00"}, {"lat": 23.0242, "lon": -82.4073303, "tipo": "sin_corriente", "lugar": "Fontanar", "horas": null, "fecha": "2026-07-03T14:31:00+00:00"}, {"lat": 23.0576272, "lon": -82.3635733, "tipo": "sin_corriente", "lugar": "Porvenir", "horas": null, "fecha": "2026-07-03T14:29:00+00:00"}, {"lat": 23.1001534, "lon": -82.4113899, "tipo": "con_corriente", "lugar": "La Ceiba", "horas": null, "fecha": "2026-07-03T14:28:55+00:00"}, {"lat": 23.1363585, "lon": -82.3879702, "tipo": "sin_corriente", "lugar": "Vedado", "horas": 48, "fecha": "2026-07-03T14:28:04+00:00"}, {"lat": 23.0969058, "lon": -82.3399219, "tipo": "sin_corriente", "lugar": "Juanelo", "horas": null, "fecha": "2026-07-03T14:24:25+00:00"}, {"lat": 23.1349509, "lon": -82.3699206, "tipo": "sin_corriente", "lugar": "Centro Habana", "horas": null, "fecha": "2026-07-03T14:23:27+00:00"}, {"lat": 23.1057411, "lon": -82.3677712, "tipo": "sin_corriente", "lugar": "Santos Suárez", "horas": null, "fecha": "2026-07-03T14:22:09+00:00"}, {"lat": 23.0268695, "lon": -82.2535359, "tipo": "sin_corriente", "lugar": "Santa Ana", "horas": null, "fecha": "2026-07-03T14:17:21+00:00"}, {"lat": 23.1084359, "lon": -82.3824298, "tipo": "sin_corriente", "lugar": "Cerro", "horas": 48, "fecha": "2026-07-03T14:13:03+00:00"}, {"lat": 23.1192318, "lon": -82.2884059, "tipo": "sin_corriente", "lugar": "Naranjo", "horas": null, "fecha": "2026-07-03T14:12:54+00:00"}, {"lat": 23.1109148, "lon": -82.4164422, "tipo": "sin_corriente", "lugar": "Almendares", "horas": null, "fecha": "2026-07-03T14:10:47+00:00"}, {"lat": 23.1018593, "lon": -82.405247, "tipo": "sin_corriente", "lugar": "Puentes Grandes", "horas": null, "fecha": "2026-07-03T14:09:03+00:00"}, {"lat": 23.1349509, "lon": -82.3699206, "tipo": "sin_corriente", "lugar": "Centro Habana", "horas": 18, "fecha": "2026-07-03T14:06:50+00:00"}, {"lat": 22.9799333, "lon": -82.3815438, "tipo": "sin_corriente", "lugar": "Mulgoba", "horas": null, "fecha": "2026-07-03T14:06:26+00:00"}, {"lat": 23.0477142, "lon": -82.3777097, "tipo": "sin_corriente", "lugar": "Fortuna", "horas": null, "fecha": "2026-07-03T13:58:30+00:00"}, {"lat": 23.1192318, "lon": -82.2884059, "tipo": "sin_corriente", "lugar": "Naranjo", "horas": null, "fecha": "2026-07-03T13:56:12+00:00"}, {"lat": 23.0030925, "lon": -82.4251486, "tipo": "sin_corriente", "lugar": "Wajay", "horas": null, "fecha": "2026-07-03T13:55:57+00:00"}, {"lat": 23.1109148, "lon": -82.4164422, "tipo": "sin_corriente", "lugar": "Almendares", "horas": null, "fecha": "2026-07-03T13:50:32+00:00"}, {"lat": 23.1114811, "lon": -82.3225756, "tipo": "sin_corriente", "lugar": "Mañana", "horas": null, "fecha": "2026-07-03T13:35:08+00:00"}, {"lat": 23.0063358, "lon": -82.4107321, "tipo": "sin_corriente", "lugar": "Abel Santamaría", "horas": null, "fecha": "2026-07-03T13:30:10+00:00"}, {"lat": 23.0937952, "lon": -82.372745, "tipo": "sin_corriente", "lugar": "Víbora", "horas": null, "fecha": "2026-07-03T13:26:33+00:00"}, {"lat": 23.0242, "lon": -82.4073303, "tipo": "con_corriente", "lugar": "Fontanar", "horas": null, "fecha": "2026-07-03T13:25:24+00:00"}, {"lat": 23.0030925, "lon": -82.4251486, "tipo": "sin_corriente", "lugar": "Wajay", "horas": null, "fecha": "2026-07-03T13:16:52+00:00"}, {"lat": 23.1363585, "lon": -82.3879702, "tipo": "sin_corriente", "lugar": "Vedado", "horas": null, "fecha": "2026-07-03T13:09:59+00:00"}, {"lat": 23.0063358, "lon": -82.4107321, "tipo": "con_corriente", "lugar": "Abel Santamaría", "horas": null, "fecha": "2026-07-03T13:09:33+00:00"}, {"lat": 23.0482903, "lon": -82.3646695, "tipo": "sin_corriente", "lugar": "Capri", "horas": null, "fecha": "2026-07-03T13:08:49+00:00"}, {"lat": 23.0063358, "lon": -82.4107321, "tipo": "sin_corriente", "lugar": "Abel Santamaría", "horas": null, "fecha": "2026-07-03T13:07:19+00:00"}, {"lat": 23.0929571, "lon": -82.3348796, "tipo": "sin_corriente", "lugar": "California", "horas": null, "fecha": "2026-07-03T12:51:32+00:00"}, {"lat": 23.1109148, "lon": -82.4164422, "tipo": "sin_corriente", "lugar": "Almendares", "horas": null, "fecha": "2026-07-03T12:46:38+00:00"}, {"lat": 23.0063358, "lon": -82.4107321, "tipo": "sin_corriente", "lugar": "Abel Santamaría", "horas": 48, "fecha": "2026-07-03T12:40:50+00:00"}, {"lat": 23.0168179, "lon": -82.3732234, "tipo": "sin_corriente", "lugar": "Calabazar", "horas": null, "fecha": "2026-07-03T12:39:54+00:00"}, {"lat": 23.1152943, "lon": -82.3002392, "tipo": "con_corriente", "lugar": "D'Beche", "horas": null, "fecha": "2026-07-03T12:38:54+00:00"}, {"lat": 23.142889, "lon": -82.3428752, "tipo": "sin_corriente", "lugar": "Casablanca", "horas": null, "fecha": "2026-07-03T12:35:15+00:00"}, {"lat": 23.0063358, "lon": -82.4107321, "tipo": "sin_corriente", "lugar": "Abel Santamaría", "horas": null, "fecha": "2026-07-03T12:31:11+00:00"}, {"lat": 23.0880732, "lon": -82.4858313, "tipo": "sin_corriente", "lugar": "Jaimanitas", "horas": null, "fecha": "2026-07-03T12:28:51+00:00"}, {"lat": 23.0482903, "lon": -82.3646695, "tipo": "sin_corriente", "lugar": "Capri", "horas": null, "fecha": "2026-07-03T12:22:59+00:00"}, {"lat": 23.0969058, "lon": -82.3399219, "tipo": "sin_corriente", "lugar": "Juanelo", "horas": null, "fecha": "2026-07-03T12:22:39+00:00"}, {"lat": 23.0063358, "lon": -82.4107321, "tipo": "con_corriente", "lugar": "Abel Santamaría", "horas": null, "fecha": "2026-07-03T12:21:33+00:00"}, {"lat": 23.0063358, "lon": -82.4107321, "tipo": "sin_corriente", "lugar": "Abel Santamaría", "horas": null, "fecha": "2026-07-03T12:20:48+00:00"}, {"lat": 23.0450568, "lon": -82.4654216, "tipo": "con_corriente", "lugar": "Arroyo Arenas", "horas": null, "fecha": "2026-07-03T12:17:39+00:00"}, {"lat": 23.0063358, "lon": -82.4107321, "tipo": "sin_corriente", "lugar": "Abel Santamaría", "horas": null, "fecha": "2026-07-03T12:15:25+00:00"}, {"lat": 23.1109148, "lon": -82.4164422, "tipo": "sin_corriente", "lugar": "Almendares", "horas": 14, "fecha": "2026-07-03T12:11:42+00:00"}, {"lat": 23.1084359, "lon": -82.3824298, "tipo": "sin_corriente", "lugar": "Cerro", "horas": 14, "fecha": "2026-07-03T12:07:07+00:00"}, {"lat": 23.0375981, "lon": -82.2517666, "tipo": "con_corriente", "lugar": "Lotería", "horas": null, "fecha": "2026-07-03T12:02:36+00:00"}, {"lat": 23.0096353, "lon": -82.3835507, "tipo": "sin_corriente", "lugar": "Nazareno", "horas": null, "fecha": "2026-07-03T12:02:07+00:00"}, {"lat": 23.1084359, "lon": -82.3824298, "tipo": "sin_corriente", "lugar": "Cerro", "horas": null, "fecha": "2026-07-03T12:00:16+00:00"}, {"lat": 23.010653, "lon": -82.4728451, "tipo": "sin_corriente", "lugar": "Valle Grande", "horas": 48, "fecha": "2026-07-03T11:57:08+00:00"}, {"lat": 23.1114811, "lon": -82.3225756, "tipo": "sin_corriente", "lugar": "Mañana", "horas": null, "fecha": "2026-07-03T11:55:37+00:00"}, {"lat": 23.0312144, "lon": -82.3757113, "tipo": "sin_corriente", "lugar": "García", "horas": null, "fecha": "2026-07-03T11:50:24+00:00"}, {"lat": 23.0482903, "lon": -82.3646695, "tipo": "sin_corriente", "lugar": "Capri", "horas": null, "fecha": "2026-07-03T11:48:11+00:00"}, {"lat": 23.0182981, "lon": -82.3946732, "tipo": "sin_corriente", "lugar": "Río Verde", "horas": 96, "fecha": "2026-07-03T11:46:32+00:00"}, {"lat": 23.0655965, "lon": -82.4677883, "tipo": "sin_corriente", "lugar": "La Coronela", "horas": null, "fecha": "2026-07-03T11:41:18+00:00"}, {"lat": 23.1001534, "lon": -82.4113899, "tipo": "sin_corriente", "lugar": "La Ceiba", "horas": null, "fecha": "2026-07-03T11:36:59+00:00"}, {"lat": 23.063469, "lon": -82.2960123, "tipo": "sin_corriente", "lugar": "San Francisco de Paula", "horas": null, "fecha": "2026-07-03T11:35:59+00:00"}, {"lat": 23.0872921, "lon": -82.3851764, "tipo": "sin_corriente", "lugar": "Casino Deportivo", "horas": null, "fecha": "2026-07-03T11:35:46+00:00"}, {"lat": 23.1349509, "lon": -82.3699206, "tipo": "sin_corriente", "lugar": "Centro Habana", "horas": null, "fecha": "2026-07-03T11:34:02+00:00"}, {"lat": 23.0937952, "lon": -82.372745, "tipo": "sin_corriente", "lugar": "Víbora", "horas": null, "fecha": "2026-07-03T11:32:46+00:00"}, {"lat": 23.0108791, "lon": -82.4020398, "tipo": "sin_corriente", "lugar": "Mazorra", "horas": null, "fecha": "2026-07-03T11:29:20+00:00"}, {"lat": 23.0030925, "lon": -82.4251486, "tipo": "sin_corriente", "lugar": "Wajay", "horas": null, "fecha": "2026-07-03T11:28:49+00:00"}, {"lat": 23.0063358, "lon": -82.4107321, "tipo": "sin_corriente", "lugar": "Abel Santamaría", "horas": null, "fecha": "2026-07-03T11:25:27+00:00"}, {"lat": 23.0799859, "lon": -82.3243759, "tipo": "sin_corriente", "lugar": "San Matias", "horas": null, "fecha": "2026-07-03T11:23:34+00:00"}, {"lat": 23.1114811, "lon": -82.3225756, "tipo": "sin_corriente", "lugar": "Mañana", "horas": null, "fecha": "2026-07-03T11:18:31+00:00"}, {"lat": 23.0063358, "lon": -82.4107321, "tipo": "con_corriente", "lugar": "Abel Santamaría", "horas": null, "fecha": "2026-07-03T10:50:27+00:00"}, {"lat": 23.1084359, "lon": -82.3824298, "tipo": "sin_corriente", "lugar": "Cerro", "horas": null, "fecha": "2026-07-03T10:50:11+00:00"}, {"lat": 23.1057411, "lon": -82.3677712, "tipo": "con_corriente", "lugar": "Santos Suárez", "horas": null, "fecha": "2026-07-03T10:33:51+00:00"}, {"lat": 23.1057411, "lon": -82.3677712, "tipo": "sin_corriente", "lugar": "Santos Suárez", "horas": null, "fecha": "2026-07-03T10:32:42+00:00"}, {"lat": 23.0361711, "lon": -82.2453716, "tipo": "sin_corriente", "lugar": "Alberro", "horas": null, "fecha": "2026-07-03T10:28:01+00:00"}, {"lat": 23.1114811, "lon": -82.3225756, "tipo": "sin_corriente", "lugar": "Mañana", "horas": 3, "fecha": "2026-07-03T10:24:29+00:00"}, {"lat": 23.0577074, "lon": -82.4694797, "tipo": "sin_corriente", "lugar": "San Agustín", "horas": null, "fecha": "2026-07-03T10:24:16+00:00"}, {"lat": 23.1192318, "lon": -82.2884059, "tipo": "sin_corriente", "lugar": "Naranjo", "horas": null, "fecha": "2026-07-03T10:13:49+00:00"}, {"lat": 23.1141018, "lon": -82.2922599, "tipo": "con_corriente", "lugar": "Nalón", "horas": null, "fecha": "2026-07-03T10:01:00+00:00"}, {"lat": 23.0799859, "lon": -82.3243759, "tipo": "sin_corriente", "lugar": "San Matias", "horas": null, "fecha": "2026-07-03T09:41:31+00:00"}], "municipios": {"Playa": {"eventos": [{"tipo": "afectacion", "bloque": null, "causa": "DAF", "zonas": ["Soterrado.", "San Benigno hasta Macedonia, Vía Blanca hasta Calzada de Buenos Aires, Agua Dulce desde San Indalecio hasta Carbajal, Calzada de Buenos Aires desde Agua Dulce hasta Macedonia, Calzada de Vía Blanca hasta Resguardo, Avenida Albear hasta Cerezo.", "Cuadrante de Monte a Malecón y de Prado a Galiano.", "Punta Brava, XX Aniversario."], "fecha": "2026-07-03T11:19:24+00:00"}, {"tipo": "afectacion", "bloque": null, "causa": "DAF", "zonas": ["Juan Manuel Márquez , Santa Fe y Jaimanitas, calle 296; 284; 5ta, Cuadrante de 284; 5ta; 1ra y 296, El Roble, Bajo Santana", "Justi, Agromar, Bajurayabo, Campo Florido, La Coca ,Alturas de Boca Ciega, Santa María del Mar, Villa Mégano", "Martín Pérez, Ciudamar, Carolina, Altura de Luyanó", "Calle 37 desde 130 hasta 100, Los Quemados, calle 84; 86; 88; 90 desde 39A hasta 51, Santa Felicia, reparto Finlay y Alturas de Belén"], "fecha": "2026-07-03T11:09:50+00:00"}], "afectaciones": 2, "restablecimientos": 0, "reportes_sin": 2}, "Centro Habana": {"eventos": [{"tipo": "afectacion", "bloque": null, "causa": "DAF", "zonas": ["Soterrado.", "San Benigno hasta Macedonia, Vía Blanca hasta Calzada de Buenos Aires, Agua Dulce desde San Indalecio hasta Carbajal, Calzada de Buenos Aires desde Agua Dulce hasta Macedonia, Calzada de Vía Blanca hasta Resguardo, Avenida Albear hasta Cerezo.", "Cuadrante de Monte a Malecón y de Prado a Galiano.", "Punta Brava, XX Aniversario."], "fecha": "2026-07-03T11:19:24+00:00"}, {"tipo": "afectacion", "bloque": null, "causa": "avería", "zonas": ["Casino Deportivo y Santo Suarez", "Maceo / 1ra y H. Barrio Azul", "Quesel / 1ra y 2da Víbora Park.", "Infanta / Sta. Teresa y Cintra."], "fecha": "2026-07-03T09:46:57+00:00"}], "afectaciones": 2, "restablecimientos": 0, "reportes_sin": 3}, "10 de Octubre": {"eventos": [{"tipo": "afectacion", "bloque": null, "causa": "DAF", "zonas": ["Soterrado.", "San Benigno hasta Macedonia, Vía Blanca hasta Calzada de Buenos Aires, Agua Dulce desde San Indalecio hasta Carbajal, Calzada de Buenos Aires desde Agua Dulce hasta Macedonia, Calzada de Vía Blanca hasta Resguardo, Avenida Albear hasta Cerezo.", "Cuadrante de Monte a Malecón y de Prado a Galiano.", "Punta Brava, XX Aniversario."], "fecha": "2026-07-03T11:19:24+00:00"}, {"tipo": "afectacion", "bloque": null, "causa": "avería", "zonas": ["Casino Deportivo y Santo Suarez", "Maceo / 1ra y H. Barrio Azul", "Quesel / 1ra y 2da Víbora Park.", "Infanta / Sta. Teresa y Cintra."], "fecha": "2026-07-03T09:46:57+00:00"}], "afectaciones": 2, "restablecimientos": 0, "reportes_sin": 0}, "Arroyo Naranjo": {"eventos": [{"tipo": "afectacion", "bloque": null, "causa": "avería", "zonas": [], "fecha": "2026-07-03T12:08:57+00:00"}, {"tipo": "afectacion", "bloque": null, "causa": "avería", "zonas": [], "fecha": "2026-07-03T12:06:48+00:00"}, {"tipo": "afectacion", "bloque": null, "causa": "avería", "zonas": [], "fecha": "2026-07-03T12:04:21+00:00"}, {"tipo": "afectacion", "bloque": null, "causa": "DAF", "zonas": ["Soterrado.", "San Benigno hasta Macedonia, Vía Blanca hasta Calzada de Buenos Aires, Agua Dulce desde San Indalecio hasta Carbajal, Calzada de Buenos Aires desde Agua Dulce hasta Macedonia, Calzada de Vía Blanca hasta Resguardo, Avenida Albear hasta Cerezo.", "Cuadrante de Monte a Malecón y de Prado a Galiano.", "Punta Brava, XX Aniversario."], "fecha": "2026-07-03T11:19:24+00:00"}, {"tipo": "afectacion", "bloque": null, "causa": "avería", "zonas": ["Casino Deportivo y Santo Suarez", "Maceo / 1ra y H. Barrio Azul", "Quesel / 1ra y 2da Víbora Park.", "Infanta / Sta. Teresa y Cintra."], "fecha": "2026-07-03T09:46:57+00:00"}], "afectaciones": 5, "restablecimientos": 0, "reportes_sin": 4}, "Boyeros": {"eventos": [{"tipo": "restablecimiento_parcial", "bloque": 4, "causa": "déficit de generación", "zonas": ["35 desde 4 hasta 6, 6 desde 35 hasta 37, 37 desde 6 hasta Loma, Loma desde 35 hasta Tulipán, Lombillo desde 39 hasta Boyeros, Marino hasta Panorama, Lombillo hasta Talleres", "Calle 37 desde 44 hasta 50; Calle 33 desde 44 hasta 66; Reparto Santa Felicia de Marianao.", "2 desde 27 hasta 25, 25 desde 2 hasta B, A desde 25 hasta 23, 23 desde 4 hasta J, J desde 25 hasta 23, 25 desde J hasta M, 27 desde J hasta O, M desde San Lázaro hasta 25.", "Cuadrante desde Calle 4 hasta A, 11 hasta Malecón."], "fecha": "2026-07-03T14:28:46+00:00"}, {"tipo": "afectacion", "bloque": null, "causa": "DAF", "zonas": ["Soterrado.", "San Benigno hasta Macedonia, Vía Blanca hasta Calzada de Buenos Aires, Agua Dulce desde San Indalecio hasta Carbajal, Calzada de Buenos Aires desde Agua Dulce hasta Macedonia, Calzada de Vía Blanca hasta Resguardo, Avenida Albear hasta Cerezo.", "Cuadrante de Monte a Malecón y de Prado a Galiano.", "Punta Brava, XX Aniversario."], "fecha": "2026-07-03T11:19:24+00:00"}, {"tipo": "afectacion", "bloque": null, "causa": "avería", "zonas": ["Casino Deportivo y Santo Suarez", "Maceo / 1ra y H. Barrio Azul", "Quesel / 1ra y 2da Víbora Park.", "Infanta / Sta. Teresa y Cintra."], "fecha": "2026-07-03T09:46:57+00:00"}], "afectaciones": 2, "restablecimientos": 0, "reportes_sin": 4}, "Cerro": {"eventos": [{"tipo": "restablecimiento", "bloque": null, "causa": "avería", "zonas": [], "fecha": "2026-07-03T13:44:31+00:00"}, {"tipo": "afectacion", "bloque": null, "causa": "DAF", "zonas": ["Soterrado.", "San Benigno hasta Macedonia, Vía Blanca hasta Calzada de Buenos Aires, Agua Dulce desde San Indalecio hasta Carbajal, Calzada de Buenos Aires desde Agua Dulce hasta Macedonia, Calzada de Vía Blanca hasta Resguardo, Avenida Albear hasta Cerezo.", "Cuadrante de Monte a Malecón y de Prado a Galiano.", "Punta Brava, XX Aniversario."], "fecha": "2026-07-03T11:19:24+00:00"}, {"tipo": "afectacion", "bloque": null, "causa": "avería", "zonas": ["Casino Deportivo y Santo Suarez", "Maceo / 1ra y H. Barrio Azul", "Quesel / 1ra y 2da Víbora Park.", "Infanta / Sta. Teresa y Cintra."], "fecha": "2026-07-03T09:46:57+00:00"}], "afectaciones": 2, "restablecimientos": 1, "reportes_sin": 2}, "Guanabacoa": {"eventos": [{"tipo": "restablecimiento_parcial", "bloque": 2, "causa": "déficit de generación", "zonas": ["Colón desde Washington hasta Vía Blanca, Vía Blanca Rotonda hasta Primelle, Primelle desde Vía Blanca hasta Santa Catalina, Primelle hasta Calzada de Palatino, Santa Catalina hasta Fomento, Ocujes desde Santa Catalina hasta Ave de La Ceiba, Calzada de Palatino hasta Fomento, Palmar hasta Santa Lugarda, Bella Vista hasta Recreo.", "Vía Blanca de Infanta a Chaples, Chaples desde Vía Blanca a Palmar, Palmar de Palatino a Suzarte, Suzarte de Palmar a Santa Catalina, Lazada desde San Juan Bosco hasta 3ra, Vento Oeste hasta 3ra, Lazada hasta Avenida del Este, Avenida del Este desde Vento Oeste hasta Avenida de La Ceiba, Avenida del Norte desde Avenida del Este hasta Lazada Norte 1, Primelles desde Avenida Norte hasta calle Interior, Avenida Este hasta Aranguren, Blanquita hasta 11.", "Vía Blanca desde 1ra hasta Primelle, Primelle desde Vía Blanca hasta Santa Catalina, Santa Catalina desde Primelle hasta Independencia Independencia desde Rotonda hasta Palmar, Independencia hasta Rambla, Colón hasta 14.", "Calle Ave del Zoológico desde AVE. del Río hasta Ulloa (Nuevo Vedado)"], "fecha": "2026-07-03T14:38:13+00:00"}, {"tipo": "afectacion", "bloque": null, "causa": "avería", "zonas": ["Casino Deportivo y Santo Suarez", "Maceo / 1ra y H. Barrio Azul", "Quesel / 1ra y 2da Víbora Park.", "Infanta / Sta. Teresa y Cintra."], "fecha": "2026-07-03T09:46:57+00:00"}], "afectaciones": 1, "restablecimientos": 0, "reportes_sin": 1}, "Habana Vieja": {"eventos": [{"tipo": "afectacion", "bloque": null, "causa": "DAF", "zonas": ["Soterrado.", "San Benigno hasta Macedonia, Vía Blanca hasta Calzada de Buenos Aires, Agua Dulce desde San Indalecio hasta Carbajal, Calzada de Buenos Aires desde Agua Dulce hasta Macedonia, Calzada de Vía Blanca hasta Resguardo, Avenida Albear hasta Cerezo.", "Cuadrante de Monte a Malecón y de Prado a Galiano.", "Punta Brava, XX Aniversario."], "fecha": "2026-07-03T11:19:24+00:00"}, {"tipo": "afectacion", "bloque": null, "causa": "avería", "zonas": ["Casino Deportivo y Santo Suarez", "Maceo / 1ra y H. Barrio Azul", "Quesel / 1ra y 2da Víbora Park.", "Infanta / Sta. Teresa y Cintra."], "fecha": "2026-07-03T09:46:57+00:00"}], "afectaciones": 2, "restablecimientos": 0, "reportes_sin": 0}, "La Lisa": {"eventos": [{"tipo": "afectacion", "bloque": null, "causa": "DAF", "zonas": ["Soterrado.", "San Benigno hasta Macedonia, Vía Blanca hasta Calzada de Buenos Aires, Agua Dulce desde San Indalecio hasta Carbajal, Calzada de Buenos Aires desde Agua Dulce hasta Macedonia, Calzada de Vía Blanca hasta Resguardo, Avenida Albear hasta Cerezo.", "Cuadrante de Monte a Malecón y de Prado a Galiano.", "Punta Brava, XX Aniversario."], "fecha": "2026-07-03T11:19:24+00:00"}, {"tipo": "afectacion", "bloque": null, "causa": "avería", "zonas": ["Casino Deportivo y Santo Suarez", "Maceo / 1ra y H. Barrio Azul", "Quesel / 1ra y 2da Víbora Park.", "Infanta / Sta. Teresa y Cintra."], "fecha": "2026-07-03T09:46:57+00:00"}], "afectaciones": 2, "restablecimientos": 0, "reportes_sin": 0}, "Plaza": {"eventos": [{"tipo": "restablecimiento", "bloque": null, "causa": "avería", "zonas": [], "fecha": "2026-07-03T13:45:31+00:00"}, {"tipo": "afectacion", "bloque": null, "causa": "DAF", "zonas": ["Soterrado.", "San Benigno hasta Macedonia, Vía Blanca hasta Calzada de Buenos Aires, Agua Dulce desde San Indalecio hasta Carbajal, Calzada de Buenos Aires desde Agua Dulce hasta Macedonia, Calzada de Vía Blanca hasta Resguardo, Avenida Albear hasta Cerezo.", "Cuadrante de Monte a Malecón y de Prado a Galiano.", "Punta Brava, XX Aniversario."], "fecha": "2026-07-03T11:19:24+00:00"}, {"tipo": "afectacion", "bloque": null, "causa": "avería", "zonas": ["Casino Deportivo y Santo Suarez", "Maceo / 1ra y H. Barrio Azul", "Quesel / 1ra y 2da Víbora Park.", "Infanta / Sta. Teresa y Cintra."], "fecha": "2026-07-03T09:46:57+00:00"}], "afectaciones": 2, "restablecimientos": 1, "reportes_sin": 0}, "Cotorro": {"eventos": [], "afectaciones": 0, "restablecimientos": 0, "reportes_sin": 1}, "Habana del Este": {"eventos": [{"tipo": "afectacion", "bloque": null, "causa": "DAF", "zonas": ["Juan Manuel Márquez , Santa Fe y Jaimanitas, calle 296; 284; 5ta, Cuadrante de 284; 5ta; 1ra y 296, El Roble, Bajo Santana", "Justi, Agromar, Bajurayabo, Campo Florido, La Coca ,Alturas de Boca Ciega, Santa María del Mar, Villa Mégano", "Martín Pérez, Ciudamar, Carolina, Altura de Luyanó", "Calle 37 desde 130 hasta 100, Los Quemados, calle 84; 86; 88; 90 desde 39A hasta 51, Santa Felicia, reparto Finlay y Alturas de Belén"], "fecha": "2026-07-03T11:09:50+00:00"}], "afectaciones": 1, "restablecimientos": 0, "reportes_sin": 0}, "Marianao": {"eventos": [{"tipo": "restablecimiento_parcial", "bloque": 4, "causa": "déficit de generación", "zonas": ["35 desde 4 hasta 6, 6 desde 35 hasta 37, 37 desde 6 hasta Loma, Loma desde 35 hasta Tulipán, Lombillo desde 39 hasta Boyeros, Marino hasta Panorama, Lombillo hasta Talleres", "Calle 37 desde 44 hasta 50; Calle 33 desde 44 hasta 66; Reparto Santa Felicia de Marianao.", "2 desde 27 hasta 25, 25 desde 2 hasta B, A desde 25 hasta 23, 23 desde 4 hasta J, J desde 25 hasta 23, 25 desde J hasta M, 27 desde J hasta O, M desde San Lázaro hasta 25.", "Cuadrante desde Calle 4 hasta A, 11 hasta Malecón."], "fecha": "2026-07-03T14:28:46+00:00"}, {"tipo": "afectacion", "bloque": null, "causa": "DAF", "zonas": ["Soterrado.", "San Benigno hasta Macedonia, Vía Blanca hasta Calzada de Buenos Aires, Agua Dulce desde San Indalecio hasta Carbajal, Calzada de Buenos Aires desde Agua Dulce hasta Macedonia, Calzada de Vía Blanca hasta Resguardo, Avenida Albear hasta Cerezo.", "Cuadrante de Monte a Malecón y de Prado a Galiano.", "Punta Brava, XX Aniversario."], "fecha": "2026-07-03T11:19:24+00:00"}, {"tipo": "afectacion", "bloque": null, "causa": "DAF", "zonas": ["Juan Manuel Márquez , Santa Fe y Jaimanitas, calle 296; 284; 5ta, Cuadrante de 284; 5ta; 1ra y 296, El Roble, Bajo Santana", "Justi, Agromar, Bajurayabo, Campo Florido, La Coca ,Alturas de Boca Ciega, Santa María del Mar, Villa Mégano", "Martín Pérez, Ciudamar, Carolina, Altura de Luyanó", "Calle 37 desde 130 hasta 100, Los Quemados, calle 84; 86; 88; 90 desde 39A hasta 51, Santa Felicia, reparto Finlay y Alturas de Belén"], "fecha": "2026-07-03T11:09:50+00:00"}], "afectaciones": 2, "restablecimientos": 0, "reportes_sin": 0}, "San Miguel del Padrón": {"eventos": [], "afectaciones": 0, "restablecimientos": 0, "reportes_sin": 0}, "Regla": {"eventos": [{"tipo": "restablecimiento_parcial", "bloque": 1, "causa": "déficit de generación", "zonas": ["Alrededores de calles Adriano, González Rubiera, Agramonte, Calixto García en Regla.", "Calles Perdomo y Simpatía en Regla", "Altura de Vía Blanca, Habana Nueva, La Cotorra, Villa1, Modelo", "Reparto Puentes Grandes, Comunidad Husillo, Reparto Puentes Nuevos, Pogolotti."], "fecha": "2026-07-03T14:58:10+00:00"}], "afectaciones": 0, "restablecimientos": 0, "reportes_sin": 0}}}